{
  "locations": [
    {
      "id": 1,
      "name": "Wheeling Clinic",
      "address": "16th Street, Wheeling, WV",
      "phone": "(304) 234-3654",
      "hours": "Mon-Fri 8AM-5PM",
      "type": "distribution",
      "status": "available",
      "available_stock": 8,
      "expiring_soon": 2,
      "zipCode": "26003",
      "mapLink": "https://www.google.com/maps/place/Wheeling+Clinic/@40.0639825,-80.7217169,17z/data=!3m2!4b1!5s0x8835da2a282f8811:0xc6a12e626ad84b58!4m6!3m5!1s0x8835da2a28514ad3:0xbba1498958861db4!8m2!3d40.0639784!4d-80.719142!16s%2Fg%2F1tf71lh0?entry=ttu&g_ep=EgoyMDI1MDUyOC4wIKXMDSoASAFQAw%3D%3D",
      "note": null
    },
    {
      "id": 2,
      "name": "Ohio County Health Dept",
      "address": "2000 Eoff St, Wheeling, WV",
      "phone": "(304) 234-3677",
      "hours": "Mon-Fri 9AM-4PM",
      "type": "distribution",
      "status": "low",
      "available_stock": 3,
      "expiring_soon": 1,
      "zipCode": "26003",
      "mapLink": "https://www.google.com/maps/search/ohio+county+health+department/@40.0670118,-80.7235813,17z/data=!3m1!4b1?entry=ttu&g_ep=EgoyMDI1MDUyOC4wIKXMDSoASAFQAw%3D%3D",
      "note": null
    },
    {
      "id": 3,
      "name": "Elm Grove Pharmacy",
      "address": "88 Bethlehem Blvd, Elm Grove, WV",
      "phone": "(304) 242-3456",
      "hours": "Mon-Sat 9AM-7PM",
      "type": "distribution",
      "status": "out",
      "available_stock": 0,
      "expiring_soon": 0,
      "zipCode": "26003",
      "mapLink": "https://www.google.com/maps/place/Elm+Grove+Pharmacy/@40.0434121,-80.6614629,17z/data=!3m1!4b1!4m6!3m5!1s0x8835db0bf2f7367f:0x2bcf272dab758297!8m2!3d40.043408!4d-80.658888!16s%2Fg%2F1thmlnfc?entry=ttu&g_ep=EgoyMDI1MDUyOC4wIKXMDSoASAFQAw%3D%3D",
      "note": "Not a free resource (average $50)"
    },
    {
      "id": 4,
      "name": "Valley Grove Community Center",
      "address": "National Road, Valley Grove, WV",
      "phone": "(304) 547-8900",
      "hours": "Tue/Thu 10AM-2PM",
      "type": "distribution",
      "status": "out",
      "available_stock": 0,
      "expiring_soon": 0,
      "zipCode": "26060",
      "mapLink": "https://www.google.com/maps/place/VALLEY+GROVE+COMMUNITY+CENTER/@40.0871424,-80.5756664,17z/data=!3m1!4b1!4m6!3m5!1s0x8835c58a0f100001:0xca6d8c40df984a01!8m2!3d40.0871384!4d-80.5707955!16s%2Fg%2F11qmn3_4rx?entry=ttu&g_ep=EgoyMDI1MDUyOC4wIKXMDSoASAFQAw%3D%3D",
      "note": null
    },
    {
      "id": 5,
      "name": "Wheeling Hospital",
      "address": "1 Medical Park, Wheeling, WV",
      "phone": "(304) 243-3000",
      "hours": "2nd Saturday each month, 10AM",
      "type": "training",
      "status": "available",
      "available_stock": 6,
      "expiring_soon": 3,
      "zipCode": "26003",
      "mapLink": "https://www.google.com/maps/place/WVU+Wheeling+Hospital/@40.0591683,-80.6873961,17z/data=!3m2!4b1!5s0x8835da53cf5c7629:0x6caeea254ef7e936!4m6!3m5!1s0x8835da53b296190b:0x81824be535f5feb2!8m2!3d40.0591642!4d-80.6848212!16s%2Fg%2F1tc_rn_7?entry=ttu&g_ep=EgoyMDI1MDUyOC4wIKXMDSoASAFQAw%3D%3D",
      "note": "Enter through Emergency Department"
    },
    {
      "id": 6,
      "name": "Ohio County EMS",
      "address": "1845 National Rd, Wheeling, WV",
      "phone": "(304) 243-4050",
      "hours": "Monthly training - call to schedule",
      "type": "training",
      "status": "available",
      "available_stock": 10,
      "expiring_soon": 0,
      "zipCode": "26003",
      "mapLink": "https://www.google.com/maps/place/Ohio+County+Homeland+Security+and+Emergency+Management+Agency/@40.0647531,-80.7230829,17z/data=!3m1!4b1!4m6!3m5!1s0x8835da29f1c351c5:0xbbabb18332d4d10!8m2!3d40.064749!4d-80.720508!16s%2Fg%2F1263yyp8j?entry=ttu&g_ep=EgoyMDI1MDUyOC4wIKXMDSoASAFQAw%3D%3D",
      "note": null
    }
  ],
  "metadata": {
    "county": "Ohio County",
    "state": "West Virginia",
    "stateAbbr": "WV",
    "lastUpdated": "2025-06-03",
    "totalLocations": 6,
    "distributionCenters": 4,
    "trainingFacilities": 2,
    "totalStock": 27,
    "totalExpiringSoon": 6
  }
}
